<?xml version="1.0" encoding="UTF-8"?>
<kml xmlns="http://www.opengis.net/kml/2.2">
  <Document>
    <name>North Central Thames</name>
    <description/>
    <Style id="icon-22-nodesc-normal">
      <IconStyle>
        <scale>1.1</scale>
        <Icon>
          <href>http://www.gstatic.com/mapspro/images/stock/22-blue-dot.png</href>
        </Icon>
        <hotSpot x="16" xunits="pixels" y="32" yunits="insetPixels"/>
      </IconStyle>
      <LabelStyle>
        <scale>0</scale>
      </LabelStyle>
      <BalloonStyle>
        <text><![CDATA[<h3>$[name]</h3>]]></text>
      </BalloonStyle>
    </Style>
    <Style id="icon-22-nodesc-highlight">
      <IconStyle>
        <scale>1.1</scale>
        <Icon>
          <href>http://www.gstatic.com/mapspro/images/stock/22-blue-dot.png</href>
        </Icon>
        <hotSpot x="16" xunits="pixels" y="32" yunits="insetPixels"/>
      </IconStyle>
      <LabelStyle>
        <scale>1.1</scale>
      </LabelStyle>
      <BalloonStyle>
        <text><![CDATA[<h3>$[name]</h3>]]></text>
      </BalloonStyle>
    </Style>
    <StyleMap id="icon-22-nodesc">
      <Pair>
        <key>normal</key>
        <styleUrl>#icon-22-nodesc-normal</styleUrl>
      </Pair>
      <Pair>
        <key>highlight</key>
        <styleUrl>#icon-22-nodesc-highlight</styleUrl>
      </Pair>
    </StyleMap>
    <Folder>
      <name>Untitled layer</name>
      <Placemark>
        <name>Barnet Hospital</name>
        <styleUrl>#icon-22-nodesc</styleUrl>
        <Point>
          <coordinates>
            -0.213933,51.650753,0
          </coordinates>
        </Point>
      </Placemark>
      <Placemark>
        <name>Chase Farm Hospital</name>
        <styleUrl>#icon-22-nodesc</styleUrl>
        <Point>
          <coordinates>
            -0.103598,51.667392,0
          </coordinates>
        </Point>
      </Placemark>
      <Placemark>
        <name>North Middlesex University Hospital</name>
        <styleUrl>#icon-22-nodesc</styleUrl>
        <Point>
          <coordinates>
            -0.073128,51.61354,0
          </coordinates>
        </Point>
      </Placemark>
      <Placemark>
        <name>Royal Free Hospital</name>
        <styleUrl>#icon-22-nodesc</styleUrl>
        <Point>
          <coordinates>
            -0.164924,51.553407,0
          </coordinates>
        </Point>
      </Placemark>
      <Placemark>
        <name>UCL Hospital</name>
        <styleUrl>#icon-22-nodesc</styleUrl>
        <Point>
          <coordinates>
            -0.136578,51.525113,0
          </coordinates>
        </Point>
      </Placemark>
      <Placemark>
        <name>Whittington Hospital</name>
        <styleUrl>#icon-22-nodesc</styleUrl>
        <Point>
          <coordinates>
            -0.139561,51.566614,0
          </coordinates>
        </Point>
      </Placemark>
      <Placemark>
        <name>Basildon University Hospital</name>
        <styleUrl>#icon-22-nodesc</styleUrl>
        <Point>
          <coordinates>
            0.451984,51.55813,0
          </coordinates>
        </Point>
      </Placemark>
      <Placemark>
        <name>Lister Hospital</name>
        <styleUrl>#icon-22-nodesc</styleUrl>
        <Point>
          <coordinates>
            -0.213032,51.923626,0
          </coordinates>
        </Point>
      </Placemark>
      <Placemark>
        <name>Queen Elizabeth II Hospital</name>
        <styleUrl>#icon-22-nodesc</styleUrl>
        <Point>
          <coordinates>
            -0.187454,51.783029,0
          </coordinates>
        </Point>
      </Placemark>
      <Placemark>
        <name><![CDATA[Luton & Dunstable Hospital]]></name>
        <styleUrl>#icon-22-nodesc</styleUrl>
        <Point>
          <coordinates>
            -0.475416,51.895258,0
          </coordinates>
        </Point>
      </Placemark>
      <Placemark>
        <name>Watford General Hospital</name>
        <styleUrl>#icon-22-nodesc</styleUrl>
        <Point>
          <coordinates>
            -0.403941,51.64841,0
          </coordinates>
        </Point>
      </Placemark>
    </Folder>
  </Document>
</kml>
