<?xml version="1.0" encoding="UTF-8"?>
<kml xmlns="http://www.opengis.net/kml/2.2">
  <Document>
    <name>North West Thames</name>
    <description/>
    <Style id="icon-22-nodesc-normal">
      <IconStyle>
        <scale>1.1</scale>
        <Icon>
          <href>http://www.gstatic.com/mapspro/images/stock/22-blue-dot.png</href>
        </Icon>
        <hotSpot x="16" xunits="pixels" y="32" yunits="insetPixels"/>
      </IconStyle>
      <LabelStyle>
        <scale>0</scale>
      </LabelStyle>
      <BalloonStyle>
        <text><![CDATA[<h3>$[name]</h3>]]></text>
      </BalloonStyle>
    </Style>
    <Style id="icon-22-nodesc-highlight">
      <IconStyle>
        <scale>1.1</scale>
        <Icon>
          <href>http://www.gstatic.com/mapspro/images/stock/22-blue-dot.png</href>
        </Icon>
        <hotSpot x="16" xunits="pixels" y="32" yunits="insetPixels"/>
      </IconStyle>
      <LabelStyle>
        <scale>1.1</scale>
      </LabelStyle>
      <BalloonStyle>
        <text><![CDATA[<h3>$[name]</h3>]]></text>
      </BalloonStyle>
    </Style>
    <StyleMap id="icon-22-nodesc">
      <Pair>
        <key>normal</key>
        <styleUrl>#icon-22-nodesc-normal</styleUrl>
      </Pair>
      <Pair>
        <key>highlight</key>
        <styleUrl>#icon-22-nodesc-highlight</styleUrl>
      </Pair>
    </StyleMap>
    <Folder>
      <name>Untitled layer</name>
      <Placemark>
        <name>Charing Cross Hospital</name>
        <styleUrl>#icon-22-nodesc</styleUrl>
        <Point>
          <coordinates>
            -0.220413,51.48765,0
          </coordinates>
        </Point>
      </Placemark>
      <Placemark>
        <name>Hammersmith Hospital</name>
        <styleUrl>#icon-22-nodesc</styleUrl>
        <Point>
          <coordinates>
            -0.234747,51.517503,0
          </coordinates>
        </Point>
      </Placemark>
      <Placemark>
        <name><![CDATA[St Mary's Hospital]]></name>
        <styleUrl>#icon-22-nodesc</styleUrl>
        <Point>
          <coordinates>
            -0.173421,51.517262,0
          </coordinates>
        </Point>
      </Placemark>
      <Placemark>
        <name><![CDATA[Chelsea & Westminster Hospital]]></name>
        <styleUrl>#icon-22-nodesc</styleUrl>
        <Point>
          <coordinates>
            -0.18136,51.484376,0
          </coordinates>
        </Point>
      </Placemark>
      <Placemark>
        <name>Ealing Hospital</name>
        <styleUrl>#icon-22-nodesc</styleUrl>
        <Point>
          <coordinates>
            -0.34564,51.507447,0
          </coordinates>
        </Point>
      </Placemark>
      <Placemark>
        <name>Hillingdon Hospital</name>
        <styleUrl>#icon-22-nodesc</styleUrl>
        <Point>
          <coordinates>
            -0.461683,51.525513,0
          </coordinates>
        </Point>
      </Placemark>
      <Placemark>
        <name>Central Middlesex Hospital</name>
        <styleUrl>#icon-22-nodesc</styleUrl>
        <Point>
          <coordinates>
            -0.267963,51.531067,0
          </coordinates>
        </Point>
      </Placemark>
      <Placemark>
        <name>Northwick Park Hospital</name>
        <styleUrl>#icon-22-nodesc</styleUrl>
        <Point>
          <coordinates>
            -0.320449,51.575549,0
          </coordinates>
        </Point>
      </Placemark>
      <Placemark>
        <name>West Middlesex University Hospital</name>
        <styleUrl>#icon-22-nodesc</styleUrl>
        <Point>
          <coordinates>
            -0.324354,51.473471,0
          </coordinates>
        </Point>
      </Placemark>
      <Placemark>
        <name>Watford General Hospital</name>
        <styleUrl>#icon-22-nodesc</styleUrl>
        <Point>
          <coordinates>
            -0.402954,51.648862,0
          </coordinates>
        </Point>
      </Placemark>
    </Folder>
  </Document>
</kml>
